[
  {
    "name": "Alishan",
    "slug": "alishan",
    "country": "Taiwan",
    "country_slug": "taiwan",
    "region": "Asia",
    "lat": 23.5109,
    "lng": 120.8,
    "population": 5000,
    "safety_level": "safe",
    "budget_per_day": "50-90",
    "highlights": [
      "sunrise",
      "trains",
      "forests"
    ],
    "best_time_to_visit": "Mar-May, Sep-Nov",
    "airport_code": "RMQ",
    "image_search": "Alishan Taiwan travel"
  },
  {
    "name": "Hualien",
    "slug": "hualien",
    "country": "Taiwan",
    "country_slug": "taiwan",
    "region": "Asia",
    "lat": 23.991,
    "lng": 121.6011,
    "population": 106368,
    "safety_level": "safe",
    "budget_per_day": "45-80",
    "highlights": [
      "taroko gorge",
      "nature",
      "coast"
    ],
    "best_time_to_visit": "Oct-Apr",
    "airport_code": "HUN",
    "image_search": "Hualien Taiwan travel"
  },
  {
    "name": "Jiufen",
    "slug": "jiufen",
    "country": "Taiwan",
    "country_slug": "taiwan",
    "region": "Asia",
    "lat": 25.1097,
    "lng": 121.8449,
    "population": 4000,
    "safety_level": "safe",
    "budget_per_day": "40-70",
    "highlights": [
      "spirited away",
      "tea houses",
      "views"
    ],
    "best_time_to_visit": "Oct-Apr",
    "airport_code": "TPE",
    "image_search": "Jiufen Taiwan travel"
  },
  {
    "name": "Kaohsiung",
    "slug": "kaohsiung",
    "country": "Taiwan",
    "country_slug": "taiwan",
    "region": "Asia",
    "lat": 22.6273,
    "lng": 120.3014,
    "population": 2773000,
    "safety_level": "safe",
    "budget_per_day": "45-85",
    "highlights": [
      "pier-2",
      "lotus pond",
      "seafood"
    ],
    "best_time_to_visit": "Oct-Apr",
    "airport_code": "KHH",
    "image_search": "Kaohsiung Taiwan travel"
  },
  {
    "name": "Kenting",
    "slug": "kenting",
    "country": "Taiwan",
    "country_slug": "taiwan",
    "region": "Asia",
    "lat": 21.9465,
    "lng": 120.797,
    "population": 5000,
    "safety_level": "safe",
    "budget_per_day": "45-85",
    "highlights": [
      "beaches",
      "national park",
      "surfing"
    ],
    "best_time_to_visit": "Apr-Oct",
    "airport_code": "KHH",
    "image_search": "Kenting Taiwan travel"
  },
  {
    "name": "Sun Moon Lake",
    "slug": "sun-moon-lake",
    "country": "Taiwan",
    "country_slug": "taiwan",
    "region": "Asia",
    "lat": 23.8651,
    "lng": 120.9196,
    "population": 5000,
    "safety_level": "safe",
    "budget_per_day": "50-90",
    "highlights": [
      "lake",
      "cycling",
      "temples"
    ],
    "best_time_to_visit": "Sep-Apr",
    "airport_code": "RMQ",
    "image_search": "Sun Moon Lake Taiwan travel"
  },
  {
    "name": "Taichung",
    "slug": "taichung",
    "country": "Taiwan",
    "country_slug": "taiwan",
    "region": "Asia",
    "lat": 24.1477,
    "lng": 120.6736,
    "population": 2803894,
    "safety_level": "safe",
    "budget_per_day": "40-75",
    "highlights": [
      "rainbow village",
      "night markets",
      "art"
    ],
    "best_time_to_visit": "Oct-Apr",
    "airport_code": "RMQ",
    "image_search": "Taichung Taiwan travel"
  },
  {
    "name": "Tainan",
    "slug": "tainan",
    "country": "Taiwan",
    "country_slug": "taiwan",
    "region": "Asia",
    "lat": 22.9998,
    "lng": 120.2269,
    "population": 1881645,
    "safety_level": "safe",
    "budget_per_day": "40-75",
    "highlights": [
      "temples",
      "food",
      "history"
    ],
    "best_time_to_visit": "Oct-Apr",
    "airport_code": "TNN",
    "image_search": "Tainan Taiwan travel"
  },
  {
    "name": "Taipei",
    "slug": "taipei",
    "country": "Taiwan",
    "country_slug": "taiwan",
    "region": "Asia",
    "lat": 25.033,
    "lng": 121.5654,
    "population": 2646000,
    "safety_level": "safe",
    "budget_per_day": "50-90",
    "highlights": [
      "night markets",
      "temples",
      "food"
    ],
    "best_time_to_visit": "Oct-Apr",
    "airport_code": "TPE",
    "image_search": "Taipei Taiwan travel"
  }
]