[
  {
    "name": "Bacalar",
    "slug": "bacalar",
    "country": "Mexico",
    "country_slug": "mexico",
    "region": "Americas",
    "lat": 18.6697,
    "lng": -88.388,
    "population": 12000,
    "safety_level": "safe",
    "budget_per_day": "40-80",
    "highlights": [
      "lagoon",
      "cenotes",
      "colors"
    ],
    "best_time_to_visit": "Year-round",
    "airport_code": "CZM",
    "image_search": "Bacalar Mexico travel"
  },
  {
    "name": "Cancun",
    "slug": "cancun",
    "country": "Mexico",
    "country_slug": "mexico",
    "region": "Americas",
    "lat": 21.1619,
    "lng": -86.8515,
    "population": 888797,
    "safety_level": "caution",
    "budget_per_day": "60-120",
    "highlights": [
      "beaches",
      "ruins",
      "nightlife"
    ],
    "best_time_to_visit": "Dec-Apr",
    "airport_code": "CUN",
    "image_search": "Cancun Mexico travel"
  },
  {
    "name": "Guadalajara",
    "slug": "guadalajara",
    "country": "Mexico",
    "country_slug": "mexico",
    "region": "Americas",
    "lat": 20.6597,
    "lng": -103.3496,
    "population": 1495182,
    "safety_level": "caution",
    "budget_per_day": "40-75",
    "highlights": [
      "tequila",
      "mariachi",
      "architecture"
    ],
    "best_time_to_visit": "Oct-May",
    "airport_code": "GDL",
    "image_search": "Guadalajara Mexico travel"
  },
  {
    "name": "Guanajuato",
    "slug": "guanajuato",
    "country": "Mexico",
    "country_slug": "mexico",
    "region": "Americas",
    "lat": 21.019,
    "lng": -101.2574,
    "population": 184239,
    "safety_level": "safe",
    "budget_per_day": "35-65",
    "highlights": [
      "colorful",
      "tunnels",
      "mummies"
    ],
    "best_time_to_visit": "Oct-May",
    "airport_code": "BJX",
    "image_search": "Guanajuato Mexico travel"
  },
  {
    "name": "Holbox",
    "slug": "holbox",
    "country": "Mexico",
    "country_slug": "mexico",
    "region": "Americas",
    "lat": 21.5222,
    "lng": -87.3808,
    "population": 2000,
    "safety_level": "safe",
    "budget_per_day": "50-100",
    "highlights": [
      "whale sharks",
      "car-free",
      "bioluminescence"
    ],
    "best_time_to_visit": "May-Sep",
    "airport_code": "CUN",
    "image_search": "Holbox Mexico travel"
  },
  {
    "name": "Mazunte",
    "slug": "mazunte",
    "country": "Mexico",
    "country_slug": "mexico",
    "region": "Americas",
    "lat": 15.6667,
    "lng": -96.55,
    "population": 500,
    "safety_level": "safe",
    "budget_per_day": "30-60",
    "highlights": [
      "turtles",
      "yoga",
      "beaches"
    ],
    "best_time_to_visit": "Nov-May",
    "airport_code": "HUX",
    "image_search": "Mazunte Mexico travel"
  },
  {
    "name": "Merida",
    "slug": "merida",
    "country": "Mexico",
    "country_slug": "mexico",
    "region": "Americas",
    "lat": 20.9674,
    "lng": -89.5926,
    "population": 892363,
    "safety_level": "safe",
    "budget_per_day": "35-65",
    "highlights": [
      "yucatan food",
      "cenotes",
      "colonial"
    ],
    "best_time_to_visit": "Nov-Apr",
    "airport_code": "MID",
    "image_search": "Merida Mexico travel"
  },
  {
    "name": "Mexico City",
    "slug": "mexico-city",
    "country": "Mexico",
    "country_slug": "mexico",
    "region": "Americas",
    "lat": 19.4326,
    "lng": -99.1332,
    "population": 21782000,
    "safety_level": "caution",
    "budget_per_day": "45-85",
    "highlights": [
      "museums",
      "food",
      "history"
    ],
    "best_time_to_visit": "Mar-May",
    "airport_code": "MEX",
    "image_search": "Mexico City Mexico travel"
  },
  {
    "name": "Oaxaca",
    "slug": "oaxaca",
    "country": "Mexico",
    "country_slug": "mexico",
    "region": "Americas",
    "lat": 17.0732,
    "lng": -96.7266,
    "population": 300050,
    "safety_level": "safe",
    "budget_per_day": "35-70",
    "highlights": [
      "food",
      "crafts",
      "mezcal"
    ],
    "best_time_to_visit": "Oct-May",
    "airport_code": "OAX",
    "image_search": "Oaxaca Mexico travel"
  },
  {
    "name": "Palenque",
    "slug": "palenque",
    "country": "Mexico",
    "country_slug": "mexico",
    "region": "Americas",
    "lat": 17.5089,
    "lng": -92.0463,
    "population": 41800,
    "safety_level": "safe",
    "budget_per_day": "30-60",
    "highlights": [
      "mayan ruins",
      "jungle",
      "waterfalls"
    ],
    "best_time_to_visit": "Nov-Apr",
    "airport_code": "PQM",
    "image_search": "Palenque Mexico travel"
  },
  {
    "name": "Playa del Carmen",
    "slug": "playa-del-carmen",
    "country": "Mexico",
    "country_slug": "mexico",
    "region": "Americas",
    "lat": 20.6296,
    "lng": -87.0739,
    "population": 149923,
    "safety_level": "caution",
    "budget_per_day": "50-100",
    "highlights": [
      "beaches",
      "cenotes",
      "quinta avenida"
    ],
    "best_time_to_visit": "Dec-Apr",
    "airport_code": "CUN",
    "image_search": "Playa del Carmen Mexico travel"
  },
  {
    "name": "Puerto Escondido",
    "slug": "puerto-escondido",
    "country": "Mexico",
    "country_slug": "mexico",
    "region": "Americas",
    "lat": 15.872,
    "lng": -97.0767,
    "population": 45000,
    "safety_level": "safe",
    "budget_per_day": "35-70",
    "highlights": [
      "surfing",
      "zicatela",
      "nightlife"
    ],
    "best_time_to_visit": "Nov-May",
    "airport_code": "PXM",
    "image_search": "Puerto Escondido Mexico travel"
  },
  {
    "name": "Puerto Vallarta",
    "slug": "puerto-vallarta",
    "country": "Mexico",
    "country_slug": "mexico",
    "region": "Americas",
    "lat": 20.6534,
    "lng": -105.2253,
    "population": 275640,
    "safety_level": "safe",
    "budget_per_day": "50-95",
    "highlights": [
      "beaches",
      "nightlife",
      "lgbtq friendly"
    ],
    "best_time_to_visit": "Nov-May",
    "airport_code": "PVR",
    "image_search": "Puerto Vallarta Mexico travel"
  },
  {
    "name": "San Cristobal de las Casas",
    "slug": "san-cristobal-de-las-casas",
    "country": "Mexico",
    "country_slug": "mexico",
    "region": "Americas",
    "lat": 16.737,
    "lng": -92.6376,
    "population": 186779,
    "safety_level": "caution",
    "budget_per_day": "30-60",
    "highlights": [
      "indigenous",
      "colonial",
      "coffee"
    ],
    "best_time_to_visit": "Nov-Apr",
    "airport_code": "SJC",
    "image_search": "San Cristobal de las Casas Mexico travel"
  },
  {
    "name": "San Miguel de Allende",
    "slug": "san-miguel-de-allende",
    "country": "Mexico",
    "country_slug": "mexico",
    "region": "Americas",
    "lat": 20.9144,
    "lng": -100.7452,
    "population": 171117,
    "safety_level": "safe",
    "budget_per_day": "45-85",
    "highlights": [
      "colonial",
      "art",
      "expats"
    ],
    "best_time_to_visit": "Oct-May",
    "airport_code": "BJX",
    "image_search": "San Miguel de Allende Mexico travel"
  },
  {
    "name": "Sayulita",
    "slug": "sayulita",
    "country": "Mexico",
    "country_slug": "mexico",
    "region": "Americas",
    "lat": 20.8681,
    "lng": -105.4378,
    "population": 4500,
    "safety_level": "safe",
    "budget_per_day": "50-100",
    "highlights": [
      "surfing",
      "bohemian",
      "beaches"
    ],
    "best_time_to_visit": "Nov-May",
    "airport_code": "PVR",
    "image_search": "Sayulita Mexico travel"
  },
  {
    "name": "Tulum",
    "slug": "tulum",
    "country": "Mexico",
    "country_slug": "mexico",
    "region": "Americas",
    "lat": 20.2114,
    "lng": -87.4654,
    "population": 18233,
    "safety_level": "safe",
    "budget_per_day": "60-120",
    "highlights": [
      "ruins",
      "cenotes",
      "wellness"
    ],
    "best_time_to_visit": "Dec-Apr",
    "airport_code": "CUN",
    "image_search": "Tulum Mexico travel"
  }
]